City_ID,City,Lat,Lng,Max Temp,Humidity,Cloudiness,Wind Speed,Country,Date
0,edinburgh of the seven seas,-37.0676,-12.3116,18.56,92,100,9.28,SH,2024-04-08
1,talnakh,69.4865,88.3972,-7.66,94,100,4.63,RU,2024-04-08
2,albany,42.6001,-73.9662,18.15,32,92,0.89,US,2024-04-08
3,oranjemund,-28.55,16.4333,15.49,87,48,3.33,NA,2024-04-08
4,mana,5.6592,-53.7767,30.16,63,95,4.57,GF,2024-04-08
5,berdigestyakh,62.0989,126.6992,-7.72,98,100,0.83,RU,2024-04-08
6,port mathurin,-19.6833,63.4167,26.97,81,14,5.43,MU,2024-04-08
7,jamestown,42.097,-79.2353,14.77,41,100,3.09,US,2024-04-08
8,port-aux-francais,-49.35,70.2167,6.96,88,58,13.5,TF,2024-04-08
9,waitangi,-43.9535,-176.5597,12.12,71,81,7.81,NZ,2024-04-08
10,ilulissat,69.2167,-51.1,-4.99,58,20,1.54,GL,2024-04-08
11,raja,8.4596,25.678,29.61,33,43,1.46,SS,2024-04-08
12,nova sintra,14.8667,-24.7167,22.92,76,1,13.56,CV,2024-04-08
13,cullinan,-25.6709,28.5236,15.67,88,100,6.69,ZA,2024-04-08
14,udachny,66.4167,112.4,-12.53,81,34,3.04,RU,2024-04-08
15,adamstown,-25.066,-130.1015,23.81,86,43,3.48,PN,2024-04-08
16,guiratinga,-16.3494,-53.7583,30.51,54,95,2.77,BR,2024-04-08
17,carnarvon,-24.8667,113.6333,26.77,31,4,6.35,AU,2024-04-08
18,kalmunai,7.4167,81.8167,27.16,72,99,2.57,LK,2024-04-08
19,fale old settlement,-9.3852,-171.2468,29.49,76,33,5.15,TK,2024-04-08
20,afaahiti,-17.75,-149.2833,25.93,84,100,5.17,PF,2024-04-08
21,tiksi,71.6872,128.8694,-9.41,81,100,10.57,RU,2024-04-08
22,kodiak,57.79,-152.4072,1.73,80,20,2.57,US,2024-04-08
23,enewetak,11.3474,162.3373,27.53,79,100,8.99,MH,2024-04-08
24,malango,-2.9627,119.9001,20.3,100,100,0.39,ID,2024-04-08
25,ar rahad,12.7167,30.65,31.01,8,33,4.55,SD,2024-04-08
26,charters towers,-20.1,146.2667,22.57,78,57,2.2,AU,2024-04-08
27,cadale,2.7603,46.3222,29.33,77,80,4.24,SO,2024-04-08
28,bethel,41.3712,-73.414,18.36,27,0,1.79,US,2024-04-08
29,severo-yeniseyskiy,60.3725,93.0408,-9.68,95,72,2.24,RU,2024-04-08
30,nuku'alofa,-21.1333,-175.2,26.11,79,59,9.36,TO,2024-04-08
31,ain taya,36.7933,3.2869,21.91,60,75,2.57,DZ,2024-04-08
32,ilabaya,-17.4208,-70.5133,24.56,61,83,5.14,PE,2024-04-08
33,puerto natales,-51.7236,-72.4875,6.25,52,20,4.63,CL,2024-04-08
34,grytviken,-54.2811,-36.5092,2.48,88,93,3.88,GS,2024-04-08
35,papatowai,-46.5619,169.4708,12.16,75,52,3.13,NZ,2024-04-08
36,waingapu,-9.6567,120.2641,26.33,83,93,1.38,ID,2024-04-08
37,igarka,67.4667,86.5833,-5.55,83,100,7.15,RU,2024-04-08
38,flying fish cove,-10.4217,105.6791,26.82,83,100,4.12,CX,2024-04-08
39,blackmans bay,-43.0167,147.3167,7.51,83,15,4.48,AU,2024-04-08
40,paita,-5.0892,-81.1144,24.81,69,97,4.13,PE,2024-04-08
41,sao gabriel da cachoeira,-0.1303,-67.0892,34.52,44,54,1.82,BR,2024-04-08
42,quellon,-43.1167,-73.6167,10.11,73,87,6.7,CL,2024-04-08
43,wailua homesteads,22.0669,-159.378,22.44,81,100,6.69,US,2024-04-08
44,puerto ayora,-0.7393,-90.3518,31.98,92,33,3.13,EC,2024-04-08
45,palmerston,-12.486,130.9833,26.99,79,87,2.57,AU,2024-04-08
46,ghadamis,30.1337,9.5007,31.24,4,55,3.69,LY,2024-04-08
47,bredasdorp,-34.5322,20.0403,16.33,95,100,9.61,ZA,2024-04-08
48,gaspe,48.8334,-64.4819,2.69,100,100,1.41,CA,2024-04-08
49,invercargill,-46.4,168.35,16.12,72,92,4.92,NZ,2024-04-08
50,isafjordur,66.0755,-23.124,0.02,69,75,8.75,IS,2024-04-08
51,coquimbo,-29.9533,-71.3436,14.85,88,100,3.6,CL,2024-04-08
52,hawaiian paradise park,19.5933,-154.9731,20.02,97,100,4.63,US,2024-04-08
53,bathsheba,13.2167,-59.5167,30.34,66,20,5.66,BB,2024-04-08
54,vilyuysk,63.7553,121.6247,-16.11,98,94,1.79,RU,2024-04-08
55,ushuaia,-54.8,-68.3,4.79,75,20,8.23,AR,2024-04-08
56,arraial do cabo,-22.9661,-42.0278,28.98,69,0,7.72,BR,2024-04-08
57,queenstown,-31.8976,26.8753,14.86,94,99,0.88,ZA,2024-04-08
58,fort bragg,35.139,-79.006,24.0,43,0,2.57,US,2024-04-08
59,kingston,17.997,-76.7936,32.87,65,20,3.6,JM,2024-04-08
60,saipan,15.1355,145.701,27.39,78,20,6.69,MP,2024-04-08
61,thompson,55.7435,-97.8558,3.42,93,100,2.04,CA,2024-04-08
62,atar,20.5169,-13.0499,32.8,12,0,7.68,MR,2024-04-08
63,petropavlovsk-kamchatsky,53.0452,158.6483,2.65,82,75,2.0,RU,2024-04-08
64,nema,57.5067,50.5011,4.7,100,100,4.01,RU,2024-04-08
65,rio grande,-32.035,-52.0986,27.06,76,46,5.11,BR,2024-04-08
66,bardai,11.65,7.2333,36.12,8,100,3.98,NG,2024-04-08
67,lensk,60.7253,114.9278,-1.01,98,100,1.55,RU,2024-04-08
68,putina,-15.4667,-69.4333,10.35,71,25,2.65,PE,2024-04-08
69,marsh harbour,26.5412,-77.0636,21.28,56,67,7.31,BS,2024-04-08
70,constantia,44.1833,28.65,17.38,73,0,2.14,RO,2024-04-08
71,ust-nera,64.5667,143.2,-16.6,100,95,1.37,RU,2024-04-08
72,tavda,58.0425,65.2726,0.94,96,100,3.58,RU,2024-04-08
73,helena valley southeast,46.6153,-111.9216,8.21,49,0,8.23,US,2024-04-08
74,las palmas de gran canaria,28.0997,-15.4134,23.07,56,40,12.35,ES,2024-04-08
75,aasiaat,68.7098,-52.8699,-6.42,86,86,1.11,GL,2024-04-08
76,hermanus,-34.4187,19.2345,16.56,94,100,8.8,ZA,2024-04-08
77,ola,59.5833,151.2833,-2.7,88,99,6.38,RU,2024-04-08
78,chui,-33.6971,-53.4616,23.89,70,22,4.76,UY,2024-04-08
79,shingu,33.7333,135.9833,16.9,99,100,0.03,JP,2024-04-08
80,ondangwa,-17.9167,15.95,29.08,35,95,1.59,NA,2024-04-08
81,saynshand,44.8824,110.1163,9.77,58,100,3.52,MN,2024-04-08
82,san luis de la loma,17.2706,-100.8939,30.19,46,2,3.7,MX,2024-04-08
83,badger,64.8,-147.5333,-2.15,88,75,2.06,US,2024-04-08
84,camacupa,-12.0167,17.4833,18.06,93,84,0.87,AO,2024-04-08
85,staryye ozinki,51.1786,49.6769,12.62,68,100,3.68,RU,2024-04-08
86,port elizabeth,-33.918,25.5701,19.62,86,34,0.89,ZA,2024-04-08
87,inari,68.906,27.0288,-0.89,98,100,1.75,FI,2024-04-08
88,christchurch,-43.5333,172.6333,10.53,93,100,1.03,NZ,2024-04-08
89,sanghar,26.0466,68.9481,32.47,15,17,6.48,PK,2024-04-08
90,sisimiut,66.9395,-53.6735,-4.09,70,76,2.33,GL,2024-04-08
91,suwayr,30.1171,40.3893,24.52,13,0,0.86,SA,2024-04-08
92,punta arenas,-53.15,-70.9167,5.06,65,40,10.8,CL,2024-04-08
93,vadso,70.0744,29.7487,-2.51,93,75,6.69,NO,2024-04-08
94,kresttsy,58.2452,32.5165,10.11,82,100,1.81,RU,2024-04-08
95,srandakan,-7.9386,110.2506,26.09,86,100,0.95,ID,2024-04-08
96,yellowknife,62.456,-114.3525,0.31,90,100,4.47,CA,2024-04-08
97,port isabel,26.0734,-97.2086,29.04,76,0,7.72,US,2024-04-08
98,ribeira grande,38.5167,-28.7,17.22,94,75,4.47,PT,2024-04-08
99,kayangel,8.0823,134.7173,28.17,75,76,6.75,PW,2024-04-08
100,bangkalan,-7.0455,112.7351,27.97,84,83,2.42,ID,2024-04-08
101,tura,25.5198,90.2201,23.46,34,79,1.15,IN,2024-04-08
102,stanley,54.868,-1.6985,13.77,81,40,2.06,GB,2024-04-08
103,almeirim,-1.5233,-52.5817,30.86,58,88,1.9,BR,2024-04-08
104,natal,-5.795,-35.2094,30.36,70,40,5.14,BR,2024-04-08
105,velyka bahachka,49.7912,33.7226,16.19,56,81,2.63,UA,2024-04-08
106,agat village,13.3886,144.6585,27.52,83,40,4.12,GU,2024-04-08
107,canandaigua,42.8742,-77.288,15.78,38,100,1.34,US,2024-04-08
108,khandyga,62.6667,135.6,-10.7,97,100,1.52,RU,2024-04-08
109,newman,37.3138,-121.0208,15.58,52,5,8.05,US,2024-04-08
110,holualoa,19.6228,-155.9522,20.91,85,75,2.57,US,2024-04-08
111,iqaluit,63.7506,-68.5145,-14.61,65,7,8.49,CA,2024-04-08
112,cafayate,-26.073,-65.9761,24.88,54,1,3.02,AR,2024-04-08
113,college,64.8569,-147.8028,-2.11,78,75,2.06,US,2024-04-08
114,margaret river,-33.95,115.0667,13.09,71,0,5.57,AU,2024-04-08
115,lorengau,-2.0226,147.2712,27.45,83,100,3.62,PG,2024-04-08
116,tazacorte,28.629,-17.9293,21.19,78,20,8.75,ES,2024-04-08
117,zelenogradsk,54.9589,20.4767,18.03,77,0,3.0,RU,2024-04-08
118,eydhafushi,5.1033,73.0708,29.4,70,93,0.9,MV,2024-04-08
119,neelankarai,12.9455,80.2575,30.04,76,20,4.63,IN,2024-04-08
120,bereket,39.2446,55.5154,21.74,38,100,0.98,TM,2024-04-08
121,nenjiang,49.1833,125.2167,-2.13,37,13,2.25,CN,2024-04-08
122,west island,-12.1568,96.8225,27.99,78,40,4.12,CC,2024-04-08
123,boa vista,2.8197,-60.6733,32.99,43,40,5.14,BR,2024-04-08
124,general conesa,-40.1,-64.4333,27.27,28,100,6.34,AR,2024-04-08
125,chinde,26.8418,88.0763,18.68,24,19,2.93,NP,2024-04-08
126,daru,-9.0763,143.2092,27.06,86,99,1.89,PG,2024-04-08
127,prado,-17.3411,-39.2208,28.88,59,62,3.28,BR,2024-04-08
128,akureyri,65.6835,-18.0878,-0.87,93,100,5.92,IS,2024-04-08
129,touros,-5.1989,-35.4608,28.5,77,100,5.38,BR,2024-04-08
130,olonkinbyen,70.9221,-8.7187,-3.28,70,100,8.75,SJ,2024-04-08
131,luganville,-15.5333,167.1667,25.33,85,100,1.37,VU,2024-04-08
132,callao,-12.0667,-77.15,26.16,69,0,3.6,PE,2024-04-08
133,bamboo flat,11.7,92.7167,28.05,83,20,0.0,IN,2024-04-08
134,alofi,-19.0595,-169.9187,24.94,94,75,5.14,NU,2024-04-08
135,san pedro pochutla,15.7333,-96.4667,33.84,41,19,3.62,MX,2024-04-08
136,carutapera,-1.195,-46.02,27.64,89,69,2.76,BR,2024-04-08
137,nhamunda,-2.1861,-56.7131,30.79,64,86,1.78,BR,2024-04-08
138,pyt-yakh,60.7499,72.8582,-2.97,99,100,1.72,RU,2024-04-08
139,uturoa,-16.7333,-151.4333,29.02,77,99,5.38,PF,2024-04-08
140,keelung,25.1283,121.7419,18.3,88,100,5.0,TW,2024-04-08
141,caraballeda,10.6112,-66.8522,37.7,33,20,1.54,VE,2024-04-08
142,patnanungan,14.7833,122.1833,26.16,87,32,3.31,PH,2024-04-08
143,portland,45.5234,-122.6762,11.46,78,100,2.57,US,2024-04-08
144,salalah,17.0151,54.0924,28.05,74,40,3.09,OM,2024-04-08
145,akrehamn,59.2667,5.1833,11.11,81,75,5.14,NO,2024-04-08
146,changzhi,35.2089,111.7386,16.0,63,84,2.01,CN,2024-04-08
147,al hazm,16.1641,44.7769,30.12,38,92,4.56,YE,2024-04-08
148,champerico,14.3,-91.9167,35.3,60,19,4.71,GT,2024-04-08
149,revda,56.801,59.9303,-0.06,87,79,4.36,RU,2024-04-08
150,halifax,44.6453,-63.5724,12.6,40,56,7.6,CA,2024-04-08
151,nantucket,41.2835,-70.0995,16.08,33,0,3.09,US,2024-04-08
152,cabo san lucas,22.8909,-109.9124,25.9,57,40,2.06,MX,2024-04-08
153,avarua,-21.2078,-159.775,25.03,94,75,4.12,CK,2024-04-08
154,bilibino,68.0546,166.4372,-24.77,99,72,1.67,RU,2024-04-08
155,colonia,50.9333,6.95,23.86,47,0,2.57,DE,2024-04-08
156,praia da vitoria,38.7333,-27.0667,18.14,88,75,5.16,PT,2024-04-08
157,ausa,41.9271,2.2497,23.56,67,97,4.47,ES,2024-04-08
158,vorgashor,67.5833,63.95,-20.11,98,78,2.7,RU,2024-04-08
159,ust'-ilimsk,58.0006,102.6619,-8.09,94,44,1.34,RU,2024-04-08
160,howard springs,-12.497,131.047,26.95,94,80,2.5,AU,2024-04-08
161,cabanas,22.9758,-82.9219,28.82,40,7,5.85,CU,2024-04-08
162,viedma,-40.8135,-62.9967,24.75,43,100,6.45,AR,2024-04-08
163,tabou,4.423,-7.3528,29.72,70,46,4.72,CI,2024-04-08
164,karasburg,-28.0167,18.75,13.94,59,83,7.36,NA,2024-04-08
165,puerto baquerizo moreno,-0.9,-89.6,29.55,74,20,6.17,EC,2024-04-08
166,chibougamau,49.9168,-74.3659,4.36,68,75,3.26,CA,2024-04-08
167,bingerville,5.3584,-3.8869,25.52,89,20,2.06,CI,2024-04-08
168,port alfred,-33.5906,26.891,20.66,85,98,4.6,ZA,2024-04-08
169,ancud,-41.8697,-73.8203,12.17,68,46,4.53,CL,2024-04-08
170,belyy yar,53.6039,91.3903,-1.06,80,9,1.0,RU,2024-04-08
171,saint-pierre,-21.3393,55.4781,25.82,83,40,3.09,RE,2024-04-08
172,la passe,45.5549,-0.8967,16.13,94,50,7.6,FR,2024-04-08
173,micheweni,-4.9667,39.8333,27.07,84,100,6.84,TZ,2024-04-08
174,kununurra,-15.7667,128.7333,20.99,88,86,0.0,AU,2024-04-08
175,aoulef,26.9667,1.0833,38.78,4,19,1.99,DZ,2024-04-08
176,malanje,-9.5402,16.341,20.32,93,80,1.65,AO,2024-04-08
177,atafu village,-8.5421,-172.5159,29.2,76,24,4.85,TK,2024-04-08
178,tazovsky,67.4667,78.7,-13.69,96,45,4.81,RU,2024-04-08
179,hami,42.8,93.45,14.98,23,94,0.59,CN,2024-04-08
180,sipalay,9.75,122.5,25.45,84,82,2.0,PH,2024-04-08
181,pimentel,-6.8367,-79.9342,30.16,51,0,5.66,PE,2024-04-08
182,uthal,25.8072,66.6219,26.78,50,22,4.81,PK,2024-04-08
183,utrik,11.2278,169.8474,26.71,82,86,9.97,MH,2024-04-08
184,aykhal,66.0,111.5,-14.13,86,35,5.04,RU,2024-04-08
185,anadyr,64.75,177.4833,-21.67,83,0,3.0,RU,2024-04-08
186,chonchi,-42.6128,-73.8092,11.73,75,76,3.1,CL,2024-04-08
187,nar'yan-mar,67.6713,53.087,-17.72,99,14,2.24,RU,2024-04-08
188,wucheng,29.6008,118.175,13.26,97,100,1.36,CN,2024-04-08
189,sandnessjoen,66.0217,12.6316,8.29,81,75,5.66,NO,2024-04-08
190,city of balikpapan,-1.242,116.8942,25.97,94,40,0.0,ID,2024-04-08
191,crane,31.3974,-102.3501,23.12,35,29,4.92,US,2024-04-08
192,valley city,46.9233,-98.0032,3.29,100,100,4.63,US,2024-04-08
193,ingraj bazar,25.0,88.15,28.29,40,74,7.04,IN,2024-04-08
194,lautoka,-17.6167,177.4667,24.92,83,75,0.0,FJ,2024-04-08
195,rechka-vydrino,51.485,104.8461,-0.23,97,100,1.18,RU,2024-04-08
196,keflavik,64.0049,-22.5624,4.24,60,0,11.32,IS,2024-04-08
197,yanjiang,30.1211,104.6481,16.56,89,100,0.64,CN,2024-04-08
198,galliano,29.4422,-90.2992,25.0,69,40,6.17,US,2024-04-08
199,neka,36.6508,53.299,11.62,84,77,2.6,IR,2024-04-08
200,zhangjiakou shi xuanhua qu,40.6103,115.0447,10.86,42,19,4.9,CN,2024-04-08
201,aripuana,-9.1667,-60.6333,33.33,50,100,1.62,BR,2024-04-08
202,kokoda,-8.8785,147.7407,23.81,94,100,2.06,PG,2024-04-08
203,arkalyk,50.2486,66.9114,8.04,86,14,6.37,KZ,2024-04-08
204,zheleznogorsk-ilimskiy,56.5768,104.1217,-11.46,98,75,0.89,RU,2024-04-08
205,iskateley,67.6803,53.1512,-17.77,99,15,2.24,RU,2024-04-08
206,trincomalee,8.5711,81.2335,28.88,67,97,5.5,LK,2024-04-08
207,belozersk,60.0326,37.7957,6.66,83,14,3.58,RU,2024-04-08
208,roanoke rapids,36.4615,-77.6542,23.44,49,0,4.63,US,2024-04-08
209,kapuskasing,49.4169,-82.4331,10.03,72,100,2.63,CA,2024-04-08
210,canyon lake,29.8752,-98.2625,25.52,78,100,0.89,US,2024-04-08
211,vanimo,-2.6741,141.3028,26.27,89,96,2.19,PG,2024-04-08
212,antsiranana,-12.2787,49.2917,26.4,83,96,5.66,MG,2024-04-08
213,yangambi,0.8102,24.4336,26.57,67,90,1.44,CD,2024-04-08
214,tateyama,34.9833,139.8667,17.83,98,100,5.36,JP,2024-04-08
215,luderitz,-26.6481,15.1594,15.69,94,43,1.3,NA,2024-04-08
216,edson,53.5835,-116.4356,8.57,32,21,2.49,CA,2024-04-08
217,tsengel,49.4783,100.8894,7.11,65,100,2.25,MN,2024-04-08
218,altinyayla,39.2725,36.751,9.95,64,100,4.62,TR,2024-04-08
219,montemor-o-novo,38.6481,-8.2145,16.53,60,23,6.3,PT,2024-04-08
220,mugia,43.1041,-9.2179,13.28,60,9,9.51,ES,2024-04-08
221,gudari,19.35,83.7833,27.47,54,77,0.21,IN,2024-04-08
222,luis correia,-2.8792,-41.6669,31.0,74,75,3.6,BR,2024-04-08
223,tyrone,33.4712,-84.5972,24.56,50,40,1.79,US,2024-04-08
224,port lincoln,-34.7333,135.8667,13.92,58,74,7.02,AU,2024-04-08
225,oregon,44.0001,-120.5014,3.67,57,18,1.89,US,2024-04-08
226,mariental,-24.6333,17.9667,21.93,27,0,7.15,NA,2024-04-08
227,sunagawa,43.4864,141.9056,6.77,90,100,2.23,JP,2024-04-08
228,happy valley-goose bay,53.3168,-60.3315,1.17,80,100,5.14,CA,2024-04-08
229,haiku-pauwela,20.9219,-156.3051,22.25,76,20,7.2,US,2024-04-08
230,mhasvad,17.6333,74.7833,31.99,18,3,4.95,IN,2024-04-08
231,fortuna,40.5982,-124.1573,12.18,73,0,3.09,US,2024-04-08
232,hassi messaoud,31.6804,6.0729,33.65,7,93,5.39,DZ,2024-04-08
233,maintirano,-18.0667,44.0167,28.11,74,38,3.59,MG,2024-04-08
234,hamilton,39.1834,-84.5333,24.32,55,0,4.12,US,2024-04-08
235,longyearbyen,78.2186,15.6401,-15.09,72,40,1.03,SJ,2024-04-08
236,howrah,22.5892,88.3103,26.0,57,40,2.06,IN,2024-04-08
237,marat,25.0701,45.4615,22.1,72,100,7.33,SA,2024-04-08
238,alice springs,-23.7,133.8833,20.12,33,97,3.6,AU,2024-04-08
239,katsuren-haebaru,26.3369,127.8719,22.21,95,75,4.12,JP,2024-04-08
240,st. john's,47.5649,-52.7093,1.1,92,100,11.18,CA,2024-04-08
241,hithadhoo,-0.6,73.0833,29.66,69,99,1.79,MV,2024-04-08
242,popondetta,-8.7537,148.2534,23.76,97,100,0.8,PG,2024-04-08
243,kavaratti,10.5669,72.642,29.56,66,18,2.75,IN,2024-04-08
244,mar del plata,-38.0023,-57.5575,26.08,58,75,7.2,AR,2024-04-08
245,tafuna,-14.3358,-170.72,29.39,79,40,5.48,AS,2024-04-08
246,takoradi,4.8845,-1.7554,30.0,73,77,6.56,GH,2024-04-08
247,hasaki,35.7333,140.8333,17.94,98,100,5.03,JP,2024-04-08
248,weno,7.4515,151.8468,27.97,89,100,1.54,FM,2024-04-08
249,bridgewater,44.3835,-64.5155,14.5,37,14,1.34,CA,2024-04-08
250,kerikeri,-35.2268,173.9474,14.39,93,33,2.04,NZ,2024-04-08
251,dudinka,69.4058,86.1778,-7.4,96,100,5.81,RU,2024-04-08
252,selfoss,63.9331,-20.9971,5.02,48,92,9.3,IS,2024-04-08
253,biltine,14.5333,20.9167,34.09,9,79,5.3,TD,2024-04-08
254,minas de marcona,-15.2119,-75.1103,23.75,56,90,5.42,PE,2024-04-08
255,armyansk,46.1092,33.6921,12.17,56,11,3.23,UA,2024-04-08
256,mahina,-17.5065,-149.489,26.87,78,75,2.06,PF,2024-04-08
257,santana,-0.0583,-51.1817,32.1,66,40,2.06,BR,2024-04-08
258,murghob,38.1702,73.9667,-8.37,42,8,3.99,TJ,2024-04-08
259,nampula,-15.1165,39.2666,23.12,83,91,1.32,MZ,2024-04-08
260,pacocha,-17.5833,-71.3333,23.08,73,40,5.14,PE,2024-04-08
261,boju,7.3783,7.9112,33.15,48,97,4.17,NG,2024-04-08
262,qaqortoq,60.7167,-46.0333,-1.45,90,100,2.72,GL,2024-04-08
263,whitehorse,60.7161,-135.0538,1.17,74,100,6.71,CA,2024-04-08
264,kattivakkam,13.2167,80.3167,30.06,75,2,4.91,IN,2024-04-08
265,staraya mayna,54.6,48.95,12.06,93,100,4.15,RU,2024-04-08
266,mel'nikovo,56.5558,84.085,-0.42,93,58,1.72,RU,2024-04-08
267,frederico westphalen,-27.3592,-53.3944,28.4,55,34,1.76,BR,2024-04-08
268,cururupu,-1.8283,-44.8683,30.63,65,85,1.88,BR,2024-04-08
269,usinsk,65.9939,57.5281,-16.63,90,79,3.58,RU,2024-04-08
270,matthew town,20.95,-73.6667,26.96,62,50,7.12,BS,2024-04-08
271,melekeok village,7.4957,134.6367,27.31,83,75,1.54,PW,2024-04-08
272,saldanha,-33.0117,17.9442,15.37,92,100,10.49,ZA,2024-04-08
273,labuan,5.2767,115.2417,28.14,80,35,2.3,MY,2024-04-08
274,lebu,-37.6167,-73.65,17.06,82,80,1.45,CL,2024-04-08
275,byron bay,-28.65,153.6167,18.17,95,6,2.85,AU,2024-04-08
276,dorado,18.4588,-66.2677,33.22,71,12,0.45,PR,2024-04-08
277,hammerfest,70.6634,23.6821,-2.75,86,100,4.63,NO,2024-04-08
278,ayr,55.4627,-4.6339,10.73,93,100,2.57,GB,2024-04-08
279,dryden,49.7833,-92.7503,4.39,87,88,3.83,CA,2024-04-08
280,shimanovsk,52.0,127.7,-4.03,59,0,2.11,RU,2024-04-08
281,strezhevoy,60.7333,77.5889,-1.69,74,100,7.15,RU,2024-04-08
282,greenville,35.6127,-77.3663,22.85,37,0,3.09,US,2024-04-08
283,beyneu,45.3167,55.2,14.61,44,8,3.58,KZ,2024-04-08
284,klamath falls,42.2249,-121.7817,6.6,70,0,1.34,US,2024-04-08
285,ataq,14.5377,46.8319,24.94,49,86,7.06,YE,2024-04-08
286,fisterra,42.9049,-9.2629,13.19,58,10,10.93,ES,2024-04-08
287,wyoming,43.0002,-107.5009,0.82,72,100,4.44,US,2024-04-08
288,veselyy,47.0934,40.7422,15.59,55,37,2.86,RU,2024-04-08
289,yilan,24.757,121.753,18.28,90,100,3.14,TW,2024-04-08
290,ponta delgada,37.7333,-25.6667,18.44,82,75,5.14,PT,2024-04-08
291,dombarovskiy,50.7587,59.5386,2.78,85,69,3.58,RU,2024-04-08
292,chicoana,-25.1009,-65.5331,21.82,75,54,2.88,AR,2024-04-08
293,ta`u,-14.2336,-169.5144,29.17,79,71,6.04,AS,2024-04-08
294,port-cartier,50.0334,-66.8654,6.36,61,29,6.51,CA,2024-04-08
295,kapsabet,0.2039,35.105,14.96,98,86,1.19,KE,2024-04-08
296,gebeit,21.0667,36.3167,23.22,24,57,2.28,SD,2024-04-08
297,vodnyy,63.5046,53.4095,-3.66,96,100,3.24,RU,2024-04-08
298,lisala,2.15,21.5167,25.38,69,46,0.91,CD,2024-04-08
299,lihue,21.9789,-159.3672,22.77,75,100,6.69,US,2024-04-08
300,changling,44.2653,124.0005,-1.01,27,0,2.31,CN,2024-04-08
301,tolanaro,-25.0319,46.9987,21.21,85,100,3.67,MG,2024-04-08
302,sulmona,42.0479,13.9291,19.12,65,93,0.19,IT,2024-04-08
303,tandil,-37.3217,-59.1332,23.71,38,28,7.06,AR,2024-04-08
304,nova vicosa,-17.8919,-39.3719,28.56,64,67,3.61,BR,2024-04-08
305,saudarkrokur,65.7461,-19.6394,-0.65,84,68,7.08,IS,2024-04-08
306,semporna,4.4818,118.6112,25.82,89,55,1.6,MY,2024-04-08
307,dabakala,8.3667,-4.4333,37.16,33,97,1.86,CI,2024-04-08
308,pierre,44.3683,-100.351,4.51,89,100,8.75,US,2024-04-08
309,baruun-urt,46.6806,113.2792,2.67,41,49,2.89,MN,2024-04-08
310,khovd,48.0056,91.6419,6.12,62,82,1.6,MN,2024-04-08
311,taltal,-25.4,-70.4833,19.87,72,2,2.92,CL,2024-04-08
312,ribeira brava,32.65,-17.0667,21.35,65,1,3.59,PT,2024-04-08
313,arhavi,41.3492,41.3069,11.95,86,100,0.31,TR,2024-04-08
314,novyy urgal,51.0736,132.5642,-6.92,74,55,1.23,RU,2024-04-08
315,vacha,55.8008,42.7706,10.49,87,100,2.93,RU,2024-04-08
316,sa'dah,16.9402,43.7639,22.77,53,20,2.58,YE,2024-04-08
317,baley,51.6,116.6333,-1.78,44,57,3.75,RU,2024-04-08
318,isla vista,34.4133,-119.861,20.46,48,0,4.63,US,2024-04-08
319,princeville,45.7668,-61.2985,9.53,59,74,5.24,CA,2024-04-08
320,al hayy,32.1735,46.0433,29.54,34,1,7.38,IQ,2024-04-08
321,guiuan,11.0333,125.7247,27.42,82,12,4.84,PH,2024-04-08
322,prescott,34.54,-112.4685,11.73,26,0,1.79,US,2024-04-08
323,ujae,8.9322,165.7642,27.65,80,100,9.28,MH,2024-04-08
324,filadelfia,39.9523,-75.1638,19.5,33,75,3.6,US,2024-04-08
325,vung tau,10.346,107.0843,28.03,76,3,9.11,VN,2024-04-08
326,marine corps base hawaii - mcbh,21.4453,-157.7513,23.98,69,40,4.12,US,2024-04-08
327,mount pearl,47.5166,-52.7813,0.64,93,100,4.92,CA,2024-04-08
328,tiruvallur,13.15,79.9167,29.81,78,2,2.61,IN,2024-04-08
329,brandon,27.9378,-82.2859,27.33,57,0,7.2,US,2024-04-08
330,tsumeb,-19.2333,17.7167,24.29,48,65,3.6,NA,2024-04-08
331,ketchikan,55.3422,-131.6461,6.26,81,75,2.06,US,2024-04-08
332,muhos,64.808,25.9931,5.88,100,100,3.04,FI,2024-04-08
333,batouri,4.4333,14.3667,26.77,57,100,1.42,CM,2024-04-08
334,bayanhongor,46.7167,100.1167,-1.91,82,84,1.19,MN,2024-04-08
335,saint-joseph,-21.3667,55.6167,25.21,88,47,2.88,RE,2024-04-08
336,saraktash,51.7866,51.7866,11.24,68,96,2.98,RU,2024-04-08
337,baiti,13.745,-14.7482,41.98,11,8,4.33,SN,2024-04-08
338,marka,1.7159,44.7717,29.33,73,84,4.6,SO,2024-04-08
339,buala,-8.145,159.5921,27.11,85,98,2.29,SB,2024-04-08
340,marsabit,2.3284,37.9899,21.42,74,79,3.33,KE,2024-04-08
341,tralee,52.2704,-9.7026,8.14,76,40,4.63,IE,2024-04-08
342,nguigmi,14.2495,13.1092,33.1,13,99,2.95,NE,2024-04-08
343,nilanga,18.1,76.7667,33.78,23,43,8.14,IN,2024-04-08
344,askoy,60.4092,5.226,11.08,87,0,8.23,NO,2024-04-08
345,kruisfontein,-34.0033,24.7314,18.27,93,57,1.89,ZA,2024-04-08
346,hobyo,5.3505,48.5268,29.12,75,76,6.65,SO,2024-04-08
347,tavistock,50.5494,-4.1442,11.28,87,100,4.47,GB,2024-04-08
348,sena madureira,-9.0656,-68.6569,31.15,66,97,2.0,BR,2024-04-08
349,energetik,51.7445,58.7934,2.91,86,69,4.13,RU,2024-04-08
350,vila velha,-20.3297,-40.2925,29.98,84,40,4.12,BR,2024-04-08
351,colby,39.3958,-101.0524,14.03,28,0,9.26,US,2024-04-08
352,kapa'a,22.0752,-159.319,23.18,80,100,6.69,US,2024-04-08
353,north bondi,-33.8824,151.2769,17.34,90,37,3.09,AU,2024-04-08
354,argo,37.6333,22.7333,15.7,47,0,4.07,GR,2024-04-08
355,pachino,36.7186,15.0907,17.15,83,16,3.4,IT,2024-04-08
356,yemetsk,63.4721,41.7941,-0.63,98,100,1.21,RU,2024-04-08
357,hattem,52.475,6.0639,19.53,74,84,2.18,NL,2024-04-08
358,pak phanang,8.3511,100.202,28.01,79,12,2.28,TH,2024-04-08
359,sitangkai,4.6628,119.3928,28.12,78,35,2.76,PH,2024-04-08
360,manokwari,-0.8667,134.0833,25.82,82,99,3.3,ID,2024-04-08
361,warburg,51.5,9.1667,23.28,38,0,3.6,DE,2024-04-08
362,barabinsk,55.3571,78.357,4.16,93,100,3.73,RU,2024-04-08
363,villa gesell,-37.2639,-56.973,24.47,54,41,7.38,AR,2024-04-08
364,taoudenni,22.6783,-3.9836,39.77,8,44,3.66,ML,2024-04-08
365,pathein,16.7833,94.7333,27.04,87,34,4.99,MM,2024-04-08
366,port sudan,19.6175,37.2164,26.72,53,67,4.1,SD,2024-04-08
367,kribi,2.95,9.9167,26.77,86,97,3.88,CM,2024-04-08
368,vilyuchinsk,52.9306,158.4028,3.47,98,89,0.48,RU,2024-04-08
369,nuuk,64.1835,-51.7216,-1.66,74,20,4.12,GL,2024-04-08
370,nouadhibou,20.931,-17.0347,21.99,60,0,10.8,MR,2024-04-08
371,la ronge,55.1001,-105.2842,3.15,92,100,0.97,CA,2024-04-08
372,necochea,-38.5473,-58.7368,27.17,33,88,8.46,AR,2024-04-08
373,klyuchi,52.2667,79.1667,11.49,60,100,2.18,RU,2024-04-08
374,san antonio de pale,-1.4014,5.6325,27.59,76,100,2.15,GQ,2024-04-08
375,arraias,-12.9288,-46.9437,29.63,50,60,1.35,BR,2024-04-08
376,belmonte,-15.8631,-38.8828,28.99,64,68,4.21,BR,2024-04-08
377,qorveh,35.1664,47.8045,12.34,50,51,0.9,IR,2024-04-08
378,dakhla,23.6848,-15.958,18.65,79,0,11.88,EH,2024-04-08
379,chebba,35.2372,11.115,20.44,58,97,4.71,TN,2024-04-08
380,jayapura,-2.5333,140.7,23.66,92,100,2.17,ID,2024-04-08
381,farafangana,-22.8167,47.8333,23.71,89,92,2.19,MG,2024-04-08
382,taroa,8.7058,171.2275,27.27,85,96,10.28,MH,2024-04-08
383,ifakara,-8.1333,36.6833,23.07,98,100,1.27,TZ,2024-04-08
384,boguchany,58.3814,97.4531,-6.75,91,18,0.89,RU,2024-04-08
385,kushiro,42.975,144.3747,6.13,100,100,1.68,JP,2024-04-08
386,trujillo,-8.116,-79.03,22.98,78,75,3.6,PE,2024-04-08
387,boca suno,-0.7167,-77.1333,28.77,92,95,0.41,EC,2024-04-08
388,lively,46.4334,-81.1498,13.9,31,86,3.76,CA,2024-04-08
389,san andres,12.5847,-81.7006,31.01,70,20,6.17,CO,2024-04-08
390,purranque,-40.9167,-73.1667,13.49,89,100,2.05,CL,2024-04-08
391,pangai,-19.8,-174.35,26.86,80,82,9.38,TO,2024-04-08
392,fortaleza,-3.7227,-38.5247,30.04,94,100,5.66,BR,2024-04-08
393,broken hill,-31.95,141.4333,13.54,77,5,9.46,AU,2024-04-08
394,kendari,-3.945,122.4989,24.41,97,98,1.77,ID,2024-04-08
395,puerto san jose,13.9256,-90.8244,31.68,56,7,4.46,GT,2024-04-08
396,qamdo,31.1667,97.2333,2.67,54,99,3.84,CN,2024-04-08
397,floro,61.5996,5.0328,10.04,76,40,10.8,NO,2024-04-08
398,bima,-8.4667,118.7167,24.76,95,17,0.29,ID,2024-04-08
399,klerksdorp,-26.8521,26.6667,17.29,85,96,7.76,ZA,2024-04-08
400,pampierstad,-27.7832,24.6877,18.02,37,38,3.81,ZA,2024-04-08
401,lokomotivnyy,53.0118,60.5684,3.56,92,98,2.68,RU,2024-04-08
402,shetpe,44.1667,52.1167,13.64,47,1,5.23,KZ,2024-04-08
403,ostersund,63.1792,14.6357,10.25,46,0,3.6,SE,2024-04-08
404,vila franca do campo,37.7167,-25.4333,18.27,99,97,3.46,PT,2024-04-08
405,cu chi,10.9667,106.4667,29.01,69,48,4.83,VN,2024-04-08
406,mahibadhoo,3.7833,72.9667,29.24,69,93,0.93,MV,2024-04-08
407,berezovyy,51.6667,135.7,-4.79,85,89,1.58,RU,2024-04-08
408,fangshan,39.6983,115.9925,10.61,28,10,2.57,CN,2024-04-08
409,saltillo,25.4167,-101.0,26.83,22,75,5.81,MX,2024-04-08
410,san patricio,28.017,-97.5169,24.95,83,96,7.04,US,2024-04-08
411,yaren,-0.5472,166.916,28.01,79,93,4.95,NR,2024-04-08
412,bandar lampung,-5.4254,105.258,24.55,94,83,1.33,ID,2024-04-08
413,suva,-18.1416,178.4415,24.71,100,75,3.09,FJ,2024-04-08
414,shangrao,28.4532,117.9686,14.79,96,100,1.78,CN,2024-04-08
415,bajil,15.0584,43.2851,32.13,43,34,3.18,YE,2024-04-08
416,macapa,0.0389,-51.0664,31.99,66,40,2.06,BR,2024-04-08
417,chulakkurgan,43.765,69.1814,16.61,51,99,2.27,KZ,2024-04-08
418,nadym,65.5333,72.5167,-8.91,87,95,4.38,RU,2024-04-08
419,georgetown,5.4112,100.3354,26.96,89,20,1.54,MY,2024-04-08
420,as sulayyil,20.4607,45.5779,33.14,31,67,8.09,SA,2024-04-08
421,keetmanshoop,-26.5833,18.1333,17.78,40,5,7.56,NA,2024-04-08
422,linhares,-19.3911,-40.0722,28.75,66,98,1.81,BR,2024-04-08
423,nabire,-3.3667,135.4833,24.14,96,100,1.99,ID,2024-04-08
424,dorchester,33.1002,-80.3831,23.93,47,0,2.57,US,2024-04-08
425,san pedro,14.35,121.0167,27.57,76,20,3.58,PH,2024-04-08
426,chitipa,-9.7024,33.2697,19.05,94,67,2.48,MW,2024-04-08
427,lata,40.1629,-8.3327,13.93,69,80,6.0,PT,2024-04-08
428,haimen,23.1935,116.6142,22.63,89,63,3.5,CN,2024-04-08
429,santiago de cao,-7.9589,-79.2392,23.07,78,40,4.12,PE,2024-04-08
430,camana,-16.6228,-72.7111,22.52,84,95,3.93,PE,2024-04-08
431,morondava,-20.2833,44.2833,28.32,75,25,3.67,MG,2024-04-08
432,akhaltsikhe,41.639,42.9826,7.22,87,88,2.31,GE,2024-04-08
433,kiffa,16.6166,-11.4045,40.9,9,0,2.4,MR,2024-04-08
434,kulhudhuffushi,6.6221,73.07,29.34,71,34,2.19,MV,2024-04-08
435,hadibu,12.65,54.0333,27.67,77,65,2.99,YE,2024-04-08
436,chos malal,-37.3781,-70.2709,24.84,9,29,6.45,AR,2024-04-08
437,calabozo,8.9242,-67.4293,37.56,30,94,3.84,VE,2024-04-08
438,luwuk,-0.9516,122.7875,23.86,90,94,0.91,ID,2024-04-08
439,port saint john's,-31.6229,29.5448,20.85,93,100,1.12,ZA,2024-04-08
440,la'ie,21.6477,-157.9253,23.98,73,2,2.68,US,2024-04-08
441,havana,23.133,-82.383,28.24,44,20,3.6,CU,2024-04-08
442,port hedland,-20.3167,118.5667,30.03,21,75,7.2,AU,2024-04-08
443,frontera,26.9333,-101.45,26.61,39,75,0.89,MX,2024-04-08
444,amahai,-3.3333,128.9167,26.06,83,100,1.74,ID,2024-04-08
445,lerwick,60.1545,-1.1494,10.0,76,71,9.45,GB,2024-04-08
446,muynoq,43.7683,59.0214,12.68,53,15,1.15,UZ,2024-04-08
447,nagqu,31.5,92.0,0.32,16,100,4.31,CN,2024-04-08
448,oradea,47.0667,21.9333,22.02,46,0,1.54,RO,2024-04-08
449,rafsanjan,30.4067,55.9939,22.59,28,92,5.86,IR,2024-04-08
450,jiuquan,39.7432,98.5174,12.1,14,100,3.23,CN,2024-04-08
451,druzhkivka,48.6301,37.5526,19.38,41,80,1.55,UA,2024-04-08
452,dadiya,9.6167,11.4333,37.19,22,83,1.26,NG,2024-04-08
453,al hillah,32.4801,44.4353,28.77,25,0,5.0,IQ,2024-04-08
454,roma,43.2128,-75.4557,17.6,32,0,0.89,US,2024-04-08
455,forestdale,33.5701,-86.8964,25.77,39,40,7.2,US,2024-04-08
456,freetown,8.484,-13.2299,28.51,68,21,4.32,SL,2024-04-08
457,irece,-11.3042,-41.8558,31.43,39,46,4.17,BR,2024-04-08
458,hilo,19.7297,-155.09,21.27,97,100,1.34,US,2024-04-08
459,kaa-khem,51.6833,94.7333,10.23,80,96,1.87,RU,2024-04-08
460,wakkanai,45.4094,141.6739,2.45,53,100,8.7,JP,2024-04-08
461,reggane,26.7158,0.1714,39.23,5,38,4.77,DZ,2024-04-08
462,midvagur,62.0511,-7.1939,7.46,100,100,6.17,FO,2024-04-08
463,rapid city,44.0805,-103.231,6.61,77,100,9.77,US,2024-04-08
464,cottage grove,44.8277,-92.9438,8.73,93,100,7.72,US,2024-04-08
465,tofol,5.3248,163.0078,27.28,79,100,8.74,FM,2024-04-08
466,tuscaloosa,33.2098,-87.5692,25.58,41,0,5.66,US,2024-04-08
467,la cruz,23.9167,-106.9,23.98,46,91,2.34,MX,2024-04-08
468,tshabong,-26.05,22.45,21.2,23,0,4.42,BW,2024-04-08
469,tha mai,12.6214,102.0048,28.14,79,6,1.59,TH,2024-04-08
470,nogliki,51.8333,143.1667,-3.14,94,52,3.13,RU,2024-04-08
471,qianjiang,30.4151,112.8859,13.93,93,82,1.85,CN,2024-04-08
472,brezina,33.0989,1.2608,31.39,8,81,5.29,DZ,2024-04-08
473,uirauna,-6.5183,-38.4122,33.28,40,40,3.66,BR,2024-04-08
474,assab,13.0092,42.7394,28.97,70,82,9.64,ER,2024-04-08
475,tame,6.461,-71.73,33.18,41,97,3.21,CO,2024-04-08
476,susuman,62.7833,148.1667,-10.01,91,100,1.34,RU,2024-04-08
477,bu'aale,1.0833,42.5833,26.62,76,100,2.72,SO,2024-04-08
478,puqi,29.7167,113.8833,16.33,86,100,1.99,CN,2024-04-08
479,lazaro cardenas,17.9583,-102.2,28.63,51,1,3.19,MX,2024-04-08
480,maiurno,13.4167,33.6667,33.29,6,10,4.77,SD,2024-04-08
481,grahamstown,-33.3042,26.5328,16.22,88,87,2.3,ZA,2024-04-08
482,yoloten,37.2989,62.3597,22.23,21,100,0.97,TM,2024-04-08
483,kailua-kona,19.6406,-155.9956,22.98,84,75,2.57,US,2024-04-08
484,kirakira,-10.4544,161.9205,26.56,85,100,2.27,SB,2024-04-08
485,collingwood,44.4834,-80.2164,11.68,54,100,3.72,CA,2024-04-08
486,novodvinsk,64.4165,40.8122,-1.14,93,100,0.85,RU,2024-04-08
487,homer,59.6425,-151.5483,0.94,73,0,0.0,US,2024-04-08
488,pisco,-13.7,-76.2167,23.03,83,0,4.12,PE,2024-04-08
489,kuta,-8.7233,115.1723,27.97,83,20,2.24,ID,2024-04-08
490,hunucma,21.0167,-89.8667,35.05,28,28,3.88,MX,2024-04-08
491,khalkhal,37.6189,48.5258,5.9,92,85,2.74,IR,2024-04-08
492,walvis bay,-22.9575,14.5053,17.2,79,5,8.07,NA,2024-04-08
493,laojunmiao,39.8333,97.7333,7.58,14,100,1.76,CN,2024-04-08
494,martapura,-3.4167,114.85,24.49,97,97,0.97,ID,2024-04-08
495,dunedin,-45.8742,170.5036,11.56,98,100,0.45,NZ,2024-04-08
496,peniche,39.3558,-9.3811,16.17,70,24,10.52,PT,2024-04-08
497,balqash,46.8481,74.995,9.42,86,100,2.72,KZ,2024-04-08
498,mareeba,-17.0,145.4333,23.02,88,100,0.48,AU,2024-04-08
499,chimore,-16.9833,-65.1333,25.8,90,100,0.87,BO,2024-04-08
500,pundong,-7.9522,110.3486,25.72,88,100,0.81,ID,2024-04-08
501,oruro,-17.9833,-67.15,16.91,38,94,2.03,BO,2024-04-08
502,soe,-9.8607,124.284,19.79,98,100,0.95,ID,2024-04-08
503,geraldton,-28.7667,114.6,26.23,27,17,9.77,AU,2024-04-08
504,francistown,-21.17,27.5079,21.16,84,100,3.85,BW,2024-04-08
505,cartagena,10.3997,-75.5144,31.79,74,20,4.63,CO,2024-04-08
506,kourou,5.1552,-52.6478,31.03,64,81,3.74,GF,2024-04-08
507,lewiston,44.1003,-70.2148,17.46,29,0,5.14,US,2024-04-08
508,merowe,18.4833,31.8167,28.53,8,94,4.62,SD,2024-04-08
509,cooma,-36.2333,149.1333,10.46,76,82,0.33,AU,2024-04-08
510,kizhinga,51.8462,109.9097,2.92,81,98,4.23,RU,2024-04-08
511,kaharlyk,49.8623,30.8282,16.34,57,82,2.44,UA,2024-04-08
512,pulandian,39.3953,121.9669,6.27,22,0,3.36,CN,2024-04-08
513,east london,-33.0153,27.9116,20.88,82,100,5.96,ZA,2024-04-08
514,borogontsy,62.6683,131.1683,-8.51,97,100,1.23,RU,2024-04-08
515,baymak,52.5933,58.3225,3.2,87,87,4.32,RU,2024-04-08
516,furmanov,57.2508,41.1058,12.77,83,100,3.82,RU,2024-04-08
517,island harbour,50.724,-1.2758,14.56,89,96,4.02,GB,2024-04-08
518,krasnapollye,53.3337,31.4014,14.23,74,100,2.9,BY,2024-04-08
519,waddan,29.1614,16.139,26.38,14,0,4.85,LY,2024-04-08
520,sibenik,43.7272,15.9058,21.81,70,100,3.13,HR,2024-04-08
521,nahiyat ash shinafiyah,31.5874,44.6602,30.84,22,0,2.96,IQ,2024-04-08
522,graaff-reinet,-32.2522,24.5308,16.07,93,15,1.5,ZA,2024-04-08
523,hjo,58.3013,14.2878,13.99,72,100,2.6,SE,2024-04-08
524,nyurba,63.2842,118.3319,-14.76,98,94,1.91,RU,2024-04-08
525,kwang binh,17.4833,106.6,24.22,93,73,1.12,VN,2024-04-08
526,male,4.1748,73.5089,29.97,84,40,0.0,MV,2024-04-08
527,la sarre,48.8002,-79.1996,8.64,68,51,1.05,CA,2024-04-08
528,necocli,8.4234,-76.786,27.77,69,100,1.26,CO,2024-04-08
529,bovril,-31.3431,-59.4451,23.84,70,75,3.25,AR,2024-04-08
530,nha trang,12.25,109.1833,27.0,91,68,1.62,VN,2024-04-08
531,gamba,-2.65,10.0,24.89,89,100,2.0,GA,2024-04-08
532,siuna,13.7332,-84.7773,34.03,39,100,3.32,NI,2024-04-08
533,el haouaria,37.05,11.0144,18.91,62,100,7.47,TN,2024-04-08
534,avanigadda,16.0215,80.9181,28.3,77,0,3.14,IN,2024-04-08
535,moyale,3.5167,39.0584,23.19,74,29,2.2,KE,2024-04-08
536,kirensk,57.7853,108.1119,-5.02,88,100,4.02,RU,2024-04-08
537,labrador city,52.9463,-66.9114,0.66,47,100,0.89,CA,2024-04-08
538,robertsport,6.7533,-11.3686,28.24,79,76,6.05,LR,2024-04-08
539,acapulco de juarez,16.8634,-99.8901,26.9,74,0,4.63,MX,2024-04-08
540,las lomas,8.4333,-82.4,33.67,52,40,2.24,PA,2024-04-08
541,forster,-32.1667,152.5167,14.65,100,40,3.02,AU,2024-04-08
542,chibuto,-24.6867,33.5306,21.2,80,91,2.44,MZ,2024-04-08
543,yuzhno-kurilsk,44.0306,145.8556,6.32,97,100,3.07,RU,2024-04-08
544,antonio enes,-16.2325,39.9086,26.7,75,32,3.07,MZ,2024-04-08
545,arno,60.1167,18.6333,9.97,79,87,4.33,SE,2024-04-08
546,bir el ater,34.7449,8.0602,24.81,13,88,4.14,DZ,2024-04-08
547,gorontalo,0.5412,123.0595,23.74,96,100,1.45,ID,2024-04-08
548,tadine,-21.55,167.8833,23.73,88,45,4.56,NC,2024-04-08
549,lompoc,34.6391,-120.4579,18.16,56,0,4.63,US,2024-04-08
550,thinadhoo,0.5333,72.9333,28.89,74,100,2.09,MV,2024-04-08
551,salekhard,66.53,66.6019,-19.22,90,19,3.13,RU,2024-04-08
552,ugoofaaru,5.6667,73.0,29.35,70,55,1.33,MV,2024-04-08
553,kudahuvadhoo,2.6708,72.8944,29.33,68,88,0.7,MV,2024-04-08
554,tamale,9.4008,-0.8393,39.67,24,69,2.31,GH,2024-04-08
555,ubari,26.5921,12.7805,28.33,5,0,4.04,LY,2024-04-08
556,salinopolis,-0.6136,-47.3561,27.37,87,62,4.12,BR,2024-04-08
557,mizdah,31.4451,12.9801,26.43,10,67,4.73,LY,2024-04-08
558,new norfolk,-42.7826,147.0587,8.17,89,61,1.48,AU,2024-04-08
559,mthatha,-31.5889,28.7844,16.19,98,100,0.85,ZA,2024-04-08
560,okha,53.5739,142.9478,-8.19,98,37,2.24,RU,2024-04-08
